[
  {
    "Nombre": "easyHotel London South Kensington",
    "Latitud": 51.4953757,
    "Longitud": -0.1894409,
    "PrecioTotal": 457,
    "Puntuación": 3.3,
    "Ciudad": "London, United Kingdom",
    "FechaEntrada": "2025-06-10",
    "FechaSalida": "2025-06-15"
  },
  {
    "Nombre": "Holiday Inn Express London - Croydon, an IHG Hotel",
    "Latitud": 51.374251699999995,
    "Longitud": -0.1019803,
    "PrecioTotal": 520,
    "Puntuación": 3.8,
    "Ciudad": "London, United Kingdom",
    "FechaEntrada": "2025-06-10",
    "FechaSalida": "2025-06-15"
  },
  {
    "Nombre": "Signature Hotel London",
    "Latitud": 51.5605103,
    "Longitud": 0.06981749999999999,
    "PrecioTotal": 351,
    "Puntuación": 3.4,
    "Ciudad": "London, United Kingdom",
    "FechaEntrada": "2025-06-10",
    "FechaSalida": "2025-06-15"
  },
  {
    "Nombre": "Leonardo Hotel London Croydon",
    "Latitud": 51.376255799999996,
    "Longitud": -0.09754620000000001,
    "PrecioTotal": 535,
    "Puntuación": 4.2,
    "Ciudad": "London, United Kingdom",
    "FechaEntrada": "2025-06-10",
    "FechaSalida": "2025-06-15"
  },
  {
    "Nombre": "Kabannas London St Pancras",
    "Latitud": 51.528836999999996,
    "Longitud": -0.12645699999999999,
    "PrecioTotal": 329,
    "Puntuación": 4.1,
    "Ciudad": "London, United Kingdom",
    "FechaEntrada": "2025-06-10",
    "FechaSalida": "2025-06-15"
  },
  {
    "Nombre": "Premier Inn London Eltham hotel",
    "Latitud": 51.4343654,
    "Longitud": 0.0639758,
    "PrecioTotal": 390,
    "Puntuación": 4,
    "Ciudad": "London, United Kingdom",
    "FechaEntrada": "2025-06-10",
    "FechaSalida": "2025-06-15"
  },
  {
    "Nombre": "Premier Inn London Tolworth hotel",
    "Latitud": 51.376633999999996,
    "Longitud": -0.2786664,
    "PrecioTotal": 463,
    "Puntuación": 4,
    "Ciudad": "London, United Kingdom",
    "FechaEntrada": "2025-06-10",
    "FechaSalida": "2025-06-15"
  },
  {
    "Nombre": "Best Western Greater London Hotel",
    "Latitud": 51.5604552,
    "Longitud": 0.069885,
    "PrecioTotal": 428,
    "Puntuación": 3.6,
    "Ciudad": "London, United Kingdom",
    "FechaEntrada": "2025-06-10",
    "FechaSalida": "2025-06-15"
  },
  {
    "Nombre": "St Christopher's Inn London Bridge: The Inn",
    "Latitud": 51.503681099999994,
    "Longitud": -0.0910131,
    "PrecioTotal": 434,
    "Puntuación": 3.9,
    "Ciudad": "London, United Kingdom",
    "FechaEntrada": "2025-06-10",
    "FechaSalida": "2025-06-15"
  },
  {
    "Nombre": "Astor Kensington Hostel",
    "Latitud": 51.51173120000001,
    "Longitud": -0.18548889999999998,
    "PrecioTotal": 451,
    "Puntuación": 3.9,
    "Ciudad": "London, United Kingdom",
    "FechaEntrada": "2025-06-10",
    "FechaSalida": "2025-06-15"
  },
  {
    "Nombre": "The White Ferry, Victoria (PUBLOVE)",
    "Latitud": 51.4890171,
    "Longitud": -0.1467093,
    "PrecioTotal": 481,
    "Puntuación": 3.9,
    "Ciudad": "London, United Kingdom",
    "FechaEntrada": "2025-06-10",
    "FechaSalida": "2025-06-15"
  },
  {
    "Nombre": "Hotel NAP INN",
    "Latitud": 51.656909899999995,
    "Longitud": -0.2011943,
    "PrecioTotal": 618,
    "Puntuación": 4.5,
    "Ciudad": "London, United Kingdom",
    "FechaEntrada": "2025-06-10",
    "FechaSalida": "2025-06-15"
  },
  {
    "Nombre": "Travelodge London Central City Road",
    "Latitud": 51.522616299999996,
    "Longitud": -0.0869629,
    "PrecioTotal": 907,
    "Puntuación": 3.8,
    "Ciudad": "London, United Kingdom",
    "FechaEntrada": "2025-06-10",
    "FechaSalida": "2025-06-15"
  },
  {
    "Nombre": "The Crown London Hotel",
    "Latitud": 51.556496599999996,
    "Longitud": -0.2142307,
    "PrecioTotal": 666,
    "Puntuación": 4.2,
    "Ciudad": "London, United Kingdom",
    "FechaEntrada": "2025-06-10",
    "FechaSalida": "2025-06-15"
  },
  {
    "Nombre": "The Tower Hotel, by Thistle",
    "Latitud": 51.506786,
    "Longitud": -0.0739649,
    "PrecioTotal": 1021,
    "Puntuación": 4.1,
    "Ciudad": "London, United Kingdom",
    "FechaEntrada": "2025-06-10",
    "FechaSalida": "2025-06-15"
  },
  {
    "Nombre": "The Rose & Crown, London Bridge (PUBLOVE)",
    "Latitud": 51.5038182,
    "Longitud": -0.0947954,
    "PrecioTotal": 507,
    "Puntuación": 4.3,
    "Ciudad": "London, United Kingdom",
    "FechaEntrada": "2025-06-10",
    "FechaSalida": "2025-06-15"
  },
  {
    "Nombre": "Wilde Aparthotels, London, Paddington",
    "Latitud": 51.519586,
    "Longitud": -0.1733297,
    "PrecioTotal": 1203,
    "Puntuación": 4.8,
    "Ciudad": "London, United Kingdom",
    "FechaEntrada": "2025-06-10",
    "FechaSalida": "2025-06-15"
  },
  {
    "Nombre": "Peckham Rooms Hotel by Belvilla",
    "Latitud": 51.473783000000005,
    "Longitud": -0.063542,
    "PrecioTotal": 408,
    "Puntuación": 3.7,
    "Ciudad": "London, United Kingdom",
    "FechaEntrada": "2025-06-10",
    "FechaSalida": "2025-06-15"
  },
  {
    "Nombre": "Big Home in London, Forest Hill",
    "Latitud": 51.4439811706543,
    "Longitud": -0.06103000044822693,
    "PrecioTotal": 414,
    "Puntuación": 3.4,
    "Ciudad": "London, United Kingdom",
    "FechaEntrada": "2025-06-10",
    "FechaSalida": "2025-06-15"
  },
  {
    "Nombre": "Relaxing Studio Retreat near public transport",
    "Latitud": 51.509544372558594,
    "Longitud": -0.32206740975379944,
    "PrecioTotal": 565,
    "Puntuación": 4.509091,
    "Ciudad": "London, United Kingdom",
    "FechaEntrada": "2025-06-10",
    "FechaSalida": "2025-06-15"
  }
]